{"code":{"0":"AL","1":"AK","2":"AZ","3":"AR","4":"CA","5":"CO","6":"CT","7":"DE","8":"FL","9":"GA","10":"HI","11":"ID","12":"IL","13":"IN","14":"IA","15":"KS","16":"KY","17":"LA","18":"ME","19":"MD","20":"MA","21":"MI","22":"MN","23":"MS","24":"MO","25":"MT","26":"NE","27":"NV","28":"NH","29":"NJ","30":"NM","31":"NY","32":"NC","33":"ND","34":"OH","35":"OK","36":"OR","37":"PA","38":"RI","39":"SC","40":"SD","41":"TN","42":"TX","43":"UT","44":"VT","45":"VA","46":"WA","47":"WV","48":"WI","49":"WY"},"state":{"0":"Alabama","1":"Alaska","2":"Arizona","3":"Arkansas","4":"California","5":"Colorado","6":"Connecticut","7":"Delaware","8":"Florida","9":"Georgia United States","10":"Hawaii","11":"Idaho","12":"Illinois","13":"Indiana","14":"Iowa","15":"Kansas","16":"Kentucky","17":"Louisiana","18":"Maine","19":"Maryland","20":"Massachusetts","21":"Michigan","22":"Minnesota","23":"Mississippi","24":"Missouri","25":"Montana","26":"Nebraska","27":"Nevada","28":"New Hampshire","29":"New Jersey","30":"New Mexico","31":"New York","32":"North Carolina","33":"North Dakota","34":"Ohio","35":"Oklahoma","36":"Oregon","37":"Pennsylvania","38":"Rhode Island","39":"South Carolina","40":"South Dakota","41":"Tennessee","42":"Texas","43":"Utah","44":"Vermont","45":"Virginia","46":"Washington","47":"West Virginia","48":"Wisconsin","49":"Wyoming"},"Country_location":{"0":{"place_id":224705,"licence":"Data \u00a9 OpenStreetMap contributors, ODbL 1.0. http:\/\/osm.org\/copyright","osm_type":"relation","osm_id":161950,"lat":"33.2588817","lon":"-86.8295337","class":"boundary","type":"administrative","place_rank":8,"importance":0.7199611412,"addresstype":"state","name":"Alabama","display_name":"Alabama, United States","boundingbox":["30.1433760","35.0081121","-88.4731014","-84.8882885"]},"1":{"place_id":173298455,"licence":"Data \u00a9 OpenStreetMap contributors, ODbL 1.0. http:\/\/osm.org\/copyright","osm_type":"relation","osm_id":1116270,"lat":"64.4459613","lon":"-149.680909","class":"boundary","type":"administrative","place_rank":8,"importance":0.7211125073,"addresstype":"state","name":"Alaska","display_name":"Alaska, United States","boundingbox":["51.0070029","71.5889534","-180.0000000","180.0000000"]},"2":{"place_id":318164494,"licence":"Data \u00a9 OpenStreetMap contributors, ODbL 1.0. http:\/\/osm.org\/copyright","osm_type":"relation","osm_id":162018,"lat":"34.395342","lon":"-111.763275","class":"boundary","type":"administrative","place_rank":8,"importance":0.7237994925,"addresstype":"state","name":"Arizona","display_name":"Arizona, United States","boundingbox":["31.3322135","37.0038722","-114.8183584","-109.0451310"]},"3":{"place_id":321523471,"licence":"Data \u00a9 OpenStreetMap contributors, ODbL 1.0. http:\/\/osm.org\/copyright","osm_type":"relation","osm_id":161646,"lat":"35.2048883","lon":"-92.4479108","class":"boundary","type":"administrative","place_rank":8,"importance":0.7046922613,"addresstype":"state","name":"Arkansas","display_name":"Arkansas, United States","boundingbox":["33.0042455","36.4996000","-94.6178753","-89.6443950"]},"4":{"place_id":309634591,"licence":"Data \u00a9 OpenStreetMap contributors, ODbL 1.0. http:\/\/osm.org\/copyright","osm_type":"relation","osm_id":165475,"lat":"36.7014631","lon":"-118.755997","class":"boundary","type":"administrative","place_rank":8,"importance":0.8121363842,"addresstype":"state","name":"California","display_name":"California, United States","boundingbox":["32.5295236","42.0094990","-124.4820030","-114.1307816"]},"5":{"place_id":317535881,"licence":"Data \u00a9 OpenStreetMap contributors, ODbL 1.0. http:\/\/osm.org\/copyright","osm_type":"relation","osm_id":161961,"lat":"38.7251776","lon":"-105.607716","class":"boundary","type":"administrative","place_rank":8,"importance":0.7160100617,"addresstype":"state","name":"Colorado","display_name":"Colorado, United States","boundingbox":["36.9925245","41.0034002","-109.0601879","-102.0415850"]},"6":{"place_id":380115325,"licence":"Data \u00a9 OpenStreetMap contributors, ODbL 1.0. http:\/\/osm.org\/copyright","osm_type":"relation","osm_id":165794,"lat":"41.6500201","lon":"-72.7342163","class":"boundary","type":"administrative","place_rank":8,"importance":0.7187719331,"addresstype":"state","name":"Connecticut","display_name":"Connecticut, United States","boundingbox":["40.9509830","42.0505827","-73.7278110","-71.7872390"]},"7":{"place_id":1853062,"licence":"Data \u00a9 OpenStreetMap contributors, ODbL 1.0. http:\/\/osm.org\/copyright","osm_type":"relation","osm_id":162110,"lat":"38.6920451","lon":"-75.4013315","class":"boundary","type":"administrative","place_rank":8,"importance":0.6835505682,"addresstype":"state","name":"Delaware","display_name":"Delaware, United States","boundingbox":["38.4511785","39.8394337","-75.7890215","-74.9849355"]},"8":{"place_id":294466527,"licence":"Data \u00a9 OpenStreetMap contributors, ODbL 1.0. http:\/\/osm.org\/copyright","osm_type":"relation","osm_id":162050,"lat":"27.7567667","lon":"-81.4639835","class":"boundary","type":"administrative","place_rank":8,"importance":0.7512139728,"addresstype":"state","name":"Florida","display_name":"Florida, United States","boundingbox":["24.3963080","31.0007620","-87.6348960","-79.9743060"]},"9":{"place_id":357395,"licence":"Data \u00a9 OpenStreetMap contributors, ODbL 1.0. http:\/\/osm.org\/copyright","osm_type":"relation","osm_id":161957,"lat":"32.3293809","lon":"-83.1137366","class":"boundary","type":"administrative","place_rank":8,"importance":0.7295778971,"addresstype":"state","name":"Georgia","display_name":"Georgia, United States","boundingbox":["30.3556558","35.0006769","-85.6051650","-80.7514290"]},"10":{"place_id":32743276,"licence":"Data \u00a9 OpenStreetMap contributors, ODbL 1.0. http:\/\/osm.org\/copyright","osm_type":"relation","osm_id":166563,"lat":"19.593801499999998","lon":"-155.42837009716908","class":"boundary","type":"administrative","place_rank":8,"importance":0.7204326434,"addresstype":"state","name":"Hawaii","display_name":"Hawaii, United States","boundingbox":["18.8654600","28.5172690","-178.4435930","-154.7557920"]},"11":{"place_id":314834583,"licence":"Data \u00a9 OpenStreetMap contributors, ODbL 1.0. http:\/\/osm.org\/copyright","osm_type":"relation","osm_id":162116,"lat":"43.6447642","lon":"-114.015407","class":"boundary","type":"administrative","place_rank":8,"importance":0.6915165331,"addresstype":"state","name":"Idaho","display_name":"Idaho, United States","boundingbox":["41.9888339","49.0008447","-117.2430324","-111.0435640"]},"12":{"place_id":323410076,"licence":"Data \u00a9 OpenStreetMap contributors, ODbL 1.0. http:\/\/osm.org\/copyright","osm_type":"relation","osm_id":122586,"lat":"40.0796606","lon":"-89.4337288","class":"boundary","type":"administrative","place_rank":8,"importance":0.743803112,"addresstype":"state","name":"Illinois","display_name":"Illinois, United States","boundingbox":["36.9701313","42.5083736","-91.5130518","-87.0199244"]},"13":{"place_id":324079861,"licence":"Data \u00a9 OpenStreetMap contributors, ODbL 1.0. http:\/\/osm.org\/copyright","osm_type":"relation","osm_id":161816,"lat":"40.3270127","lon":"-86.1746933","class":"boundary","type":"administrative","place_rank":8,"importance":0.7178369726,"addresstype":"state","name":"Indiana","display_name":"Indiana, United States","boundingbox":["37.7716793","41.7613680","-88.0972043","-84.7846090"]},"14":{"place_id":28070677,"licence":"Data \u00a9 OpenStreetMap contributors, ODbL 1.0. http:\/\/osm.org\/copyright","osm_type":"relation","osm_id":161650,"lat":"41.9216734","lon":"-93.3122705","class":"boundary","type":"administrative","place_rank":8,"importance":0.7218839539,"addresstype":"state","name":"Iowa","display_name":"Iowa, United States","boundingbox":["40.3756007","43.5011589","-96.6397162","-90.1400610"]},"15":{"place_id":316653729,"licence":"Data \u00a9 OpenStreetMap contributors, ODbL 1.0. http:\/\/osm.org\/copyright","osm_type":"relation","osm_id":161644,"lat":"38.27312","lon":"-98.5821872","class":"boundary","type":"administrative","place_rank":8,"importance":0.7165418314,"addresstype":"state","name":"Kansas","display_name":"Kansas, United States","boundingbox":["36.9930715","40.0032291","-102.0517919","-94.5882049"]},"16":{"place_id":323965597,"licence":"Data \u00a9 OpenStreetMap contributors, ODbL 1.0. http:\/\/osm.org\/copyright","osm_type":"relation","osm_id":161655,"lat":"37.5726028","lon":"-85.1551411","class":"boundary","type":"administrative","place_rank":8,"importance":0.7114047611,"addresstype":"state","name":"Kentucky","display_name":"Kentucky, United States","boundingbox":["36.4971180","39.1477997","-89.5715090","-81.9645413"]},"17":{"place_id":293608976,"licence":"Data \u00a9 OpenStreetMap contributors, ODbL 1.0. http:\/\/osm.org\/copyright","osm_type":"relation","osm_id":224922,"lat":"30.8703881","lon":"-92.007126","class":"boundary","type":"administrative","place_rank":8,"importance":0.7131848884,"addresstype":"state","name":"Louisiana","display_name":"Louisiana, United States","boundingbox":["28.8542892","33.0195943","-94.0431869","-88.7583310"]},"18":{"place_id":19743113,"licence":"Data \u00a9 OpenStreetMap contributors, ODbL 1.0. http:\/\/osm.org\/copyright","osm_type":"relation","osm_id":63512,"lat":"45.709097","lon":"-68.8590201","class":"boundary","type":"administrative","place_rank":8,"importance":0.7049625005,"addresstype":"state","name":"Maine","display_name":"Maine, United States","boundingbox":["42.9222206","47.4598397","-71.0841694","-66.8854053"]},"19":{"place_id":4511521,"licence":"Data \u00a9 OpenStreetMap contributors, ODbL 1.0. http:\/\/osm.org\/copyright","osm_type":"relation","osm_id":162112,"lat":"39.5162401","lon":"-76.9382069","class":"boundary","type":"administrative","place_rank":8,"importance":0.724620353,"addresstype":"state","name":"Maryland","display_name":"Maryland, United States","boundingbox":["37.8865288","39.7228824","-79.4873055","-74.9852049"]},"20":{"place_id":18402834,"licence":"Data \u00a9 OpenStreetMap contributors, ODbL 1.0. http:\/\/osm.org\/copyright","osm_type":"relation","osm_id":61315,"lat":"42.3788774","lon":"-72.032366","class":"boundary","type":"administrative","place_rank":8,"importance":0.7364497613,"addresstype":"state","name":"Massachusetts","display_name":"Massachusetts, United States","boundingbox":["41.1888589","42.8867783","-73.5082102","-69.8601042"]},"21":{"place_id":23457604,"licence":"Data \u00a9 OpenStreetMap contributors, ODbL 1.0. http:\/\/osm.org\/copyright","osm_type":"relation","osm_id":165789,"lat":"43.6211955","lon":"-84.6824346","class":"boundary","type":"administrative","place_rank":8,"importance":0.7378514534,"addresstype":"state","name":"Michigan","display_name":"Michigan, United States","boundingbox":["41.6961278","48.3060630","-90.4186202","-82.1228056"]},"22":{"place_id":29508466,"licence":"Data \u00a9 OpenStreetMap contributors, ODbL 1.0. http:\/\/osm.org\/copyright","osm_type":"relation","osm_id":165471,"lat":"45.9896587","lon":"-94.6113288","class":"boundary","type":"administrative","place_rank":8,"importance":0.7311020003,"addresstype":"state","name":"Minnesota","display_name":"Minnesota, United States","boundingbox":["43.4994288","49.3844722","-97.2392619","-89.4833850"]},"23":{"place_id":321173572,"licence":"Data \u00a9 OpenStreetMap contributors, ODbL 1.0. http:\/\/osm.org\/copyright","osm_type":"relation","osm_id":161943,"lat":"32.9715285","lon":"-89.7348497","class":"boundary","type":"administrative","place_rank":8,"importance":0.7003917785,"addresstype":"state","name":"Mississippi","display_name":"Mississippi, United States","boundingbox":["30.1436769","34.9960168","-91.6550090","-88.0977945"]},"24":{"place_id":322682833,"licence":"Data \u00a9 OpenStreetMap contributors, ODbL 1.0. http:\/\/osm.org\/copyright","osm_type":"relation","osm_id":161638,"lat":"38.7604815","lon":"-92.5617875","class":"boundary","type":"administrative","place_rank":8,"importance":0.7328813447,"addresstype":"state","name":"Missouri","display_name":"Missouri, United States","boundingbox":["35.9957227","40.6136347","-95.7741441","-89.0988430"]},"25":{"place_id":315924948,"licence":"Data \u00a9 OpenStreetMap contributors, ODbL 1.0. http:\/\/osm.org\/copyright","osm_type":"relation","osm_id":162115,"lat":"47.3752671","lon":"-109.638757","class":"boundary","type":"administrative","place_rank":8,"importance":0.7017360499,"addresstype":"state","name":"Montana","display_name":"Montana, United States","boundingbox":["44.3579150","49.0011094","-116.0492317","-104.0395630"]},"26":{"place_id":316440970,"licence":"Data \u00a9 OpenStreetMap contributors, ODbL 1.0. http:\/\/osm.org\/copyright","osm_type":"relation","osm_id":161648,"lat":"41.7370229","lon":"-99.5873816","class":"boundary","type":"administrative","place_rank":8,"importance":0.6996571128,"addresstype":"state","name":"Nebraska","display_name":"Nebraska, United States","boundingbox":["39.9999776","43.0014799","-104.0535227","-95.3080545"]},"27":{"place_id":309848078,"licence":"Data \u00a9 OpenStreetMap contributors, ODbL 1.0. http:\/\/osm.org\/copyright","osm_type":"relation","osm_id":165473,"lat":"39.5158825","lon":"-116.853722","class":"boundary","type":"administrative","place_rank":8,"importance":0.7081010445,"addresstype":"state","name":"Nevada","display_name":"Nevada, United States","boundingbox":["35.0018894","42.0003800","-120.0057276","-114.0402955"]},"28":{"place_id":19522775,"licence":"Data \u00a9 OpenStreetMap contributors, ODbL 1.0. http:\/\/osm.org\/copyright","osm_type":"relation","osm_id":67213,"lat":"43.4849133","lon":"-71.6553992","class":"boundary","type":"administrative","place_rank":8,"importance":0.6927886811,"addresstype":"state","name":"New Hampshire","display_name":"New Hampshire, United States","boundingbox":["42.6972286","45.3057789","-72.5572359","-70.5613593"]},"29":{"place_id":14324737,"licence":"Data \u00a9 OpenStreetMap contributors, ODbL 1.0. http:\/\/osm.org\/copyright","osm_type":"relation","osm_id":224951,"lat":"40.0757384","lon":"-74.4041622","class":"boundary","type":"administrative","place_rank":8,"importance":0.7520555135,"addresstype":"state","name":"New Jersey","display_name":"New Jersey, United States","boundingbox":["38.7911303","41.3574523","-75.5633860","-73.8936280"]},"30":{"place_id":317963541,"licence":"Data \u00a9 OpenStreetMap contributors, ODbL 1.0. http:\/\/osm.org\/copyright","osm_type":"relation","osm_id":162014,"lat":"34.5802074","lon":"-105.996047","class":"boundary","type":"administrative","place_rank":8,"importance":0.7154563007,"addresstype":"state","name":"New Mexico","display_name":"New Mexico, United States","boundingbox":["31.3322006","37.0001788","-109.0502229","-103.0022266"]},"31":{"place_id":371663561,"licence":"Data \u00a9 OpenStreetMap contributors, ODbL 1.0. http:\/\/osm.org\/copyright","osm_type":"relation","osm_id":175905,"lat":"40.7127281","lon":"-74.0060152","class":"boundary","type":"administrative","place_rank":10,"importance":0.8175766115,"addresstype":"city","name":"New York","display_name":"New York, United States","boundingbox":["40.4765780","40.9176300","-74.2588430","-73.7002330"]},"32":{"place_id":865518,"licence":"Data \u00a9 OpenStreetMap contributors, ODbL 1.0. http:\/\/osm.org\/copyright","osm_type":"relation","osm_id":224045,"lat":"35.6729639","lon":"-79.0392919","class":"boundary","type":"administrative","place_rank":8,"importance":0.7203643979,"addresstype":"state","name":"North Carolina","display_name":"North Carolina, United States","boundingbox":["33.7528780","36.5881570","-84.3218293","-75.4001190"]},"33":{"place_id":316061861,"licence":"Data \u00a9 OpenStreetMap contributors, ODbL 1.0. http:\/\/osm.org\/copyright","osm_type":"relation","osm_id":161653,"lat":"47.6201461","lon":"-100.540737","class":"boundary","type":"administrative","place_rank":8,"importance":0.6891023394,"addresstype":"state","name":"North Dakota","display_name":"North Dakota, United States","boundingbox":["45.9350540","49.0005765","-104.0492650","-96.5543975"]},"34":{"place_id":25324576,"licence":"Data \u00a9 OpenStreetMap contributors, ODbL 1.0. http:\/\/osm.org\/copyright","osm_type":"relation","osm_id":162061,"lat":"40.2253569","lon":"-82.6881395","class":"boundary","type":"administrative","place_rank":8,"importance":0.740735765,"addresstype":"state","name":"Ohio","display_name":"Ohio, United States","boundingbox":["38.4031419","42.3232365","-84.8203361","-80.5189540"]},"35":{"place_id":319353716,"licence":"Data \u00a9 OpenStreetMap contributors, ODbL 1.0. http:\/\/osm.org\/copyright","osm_type":"relation","osm_id":161645,"lat":"34.9550817","lon":"-97.2684063","class":"boundary","type":"administrative","place_rank":8,"importance":0.7140161954,"addresstype":"state","name":"Oklahoma","display_name":"Oklahoma, United States","boundingbox":["33.6191533","37.0022994","-103.0024413","-94.4312145"]},"36":{"place_id":314554670,"licence":"Data \u00a9 OpenStreetMap contributors, ODbL 1.0. http:\/\/osm.org\/copyright","osm_type":"relation","osm_id":165476,"lat":"43.9792797","lon":"-120.737257","class":"boundary","type":"administrative","place_rank":8,"importance":0.7242960375,"addresstype":"state","name":"Oregon","display_name":"Oregon, United States","boundingbox":["41.9917940","46.2923948","-124.7035410","-116.4631465"]},"37":{"place_id":6474057,"licence":"Data \u00a9 OpenStreetMap contributors, ODbL 1.0. http:\/\/osm.org\/copyright","osm_type":"relation","osm_id":162109,"lat":"40.9699889","lon":"-77.7278831","class":"boundary","type":"administrative","place_rank":8,"importance":0.7577426432,"addresstype":"state","name":"Pennsylvania","display_name":"Pennsylvania, United States","boundingbox":["39.7197662","42.5146891","-80.5210833","-74.6896720"]},"38":{"place_id":17083971,"licence":"Data \u00a9 OpenStreetMap contributors, ODbL 1.0. http:\/\/osm.org\/copyright","osm_type":"relation","osm_id":392915,"lat":"41.7962409","lon":"-71.5992372","class":"boundary","type":"administrative","place_rank":8,"importance":0.6880269026,"addresstype":"state","name":"Rhode Island","display_name":"Rhode Island, United States","boundingbox":["41.0958340","42.0189359","-71.9074310","-71.0885710"]},"39":{"place_id":572353,"licence":"Data \u00a9 OpenStreetMap contributors, ODbL 1.0. http:\/\/osm.org\/copyright","osm_type":"relation","osm_id":224040,"lat":"33.6874388","lon":"-80.4363743","class":"boundary","type":"administrative","place_rank":8,"importance":0.7034592623,"addresstype":"state","name":"South Carolina","display_name":"South Carolina, United States","boundingbox":["32.0334540","35.2154852","-83.3539979","-78.5413536"]},"40":{"place_id":316016813,"licence":"Data \u00a9 OpenStreetMap contributors, ODbL 1.0. http:\/\/osm.org\/copyright","osm_type":"relation","osm_id":161652,"lat":"44.6471761","lon":"-100.348761","class":"boundary","type":"administrative","place_rank":8,"importance":0.6952715821,"addresstype":"state","name":"South Dakota","display_name":"South Dakota, United States","boundingbox":["42.4798925","45.9453350","-104.0577568","-96.4363403"]},"41":{"place_id":327458731,"licence":"Data \u00a9 OpenStreetMap contributors, ODbL 1.0. http:\/\/osm.org\/copyright","osm_type":"relation","osm_id":161838,"lat":"35.7730076","lon":"-86.2820081","class":"boundary","type":"administrative","place_rank":8,"importance":0.7202681053,"addresstype":"state","name":"Tennessee","display_name":"Tennessee, United States","boundingbox":["34.9829380","36.6781180","-90.3102980","-81.6472191"]},"42":{"place_id":305234088,"licence":"Data \u00a9 OpenStreetMap contributors, ODbL 1.0. http:\/\/osm.org\/copyright","osm_type":"relation","osm_id":114690,"lat":"31.2638905","lon":"-98.5456116","class":"boundary","type":"administrative","place_rank":8,"importance":0.7580521395,"addresstype":"state","name":"Texas","display_name":"Texas, United States","boundingbox":["25.8370600","36.5004529","-106.6458459","-93.5078217"]},"43":{"place_id":317692280,"licence":"Data \u00a9 OpenStreetMap contributors, ODbL 1.0. http:\/\/osm.org\/copyright","osm_type":"relation","osm_id":161993,"lat":"39.4225192","lon":"-111.714358","class":"boundary","type":"administrative","place_rank":8,"importance":0.7037654307,"addresstype":"state","name":"Utah","display_name":"Utah, United States","boundingbox":["36.9978085","42.0017020","-114.0528506","-109.0415767"]},"44":{"place_id":10259364,"licence":"Data \u00a9 OpenStreetMap contributors, ODbL 1.0. http:\/\/osm.org\/copyright","osm_type":"relation","osm_id":60759,"lat":"44.5990718","lon":"-72.5002608","class":"boundary","type":"administrative","place_rank":8,"importance":0.6908779874,"addresstype":"state","name":"Vermont","display_name":"Vermont, United States","boundingbox":["42.7269600","45.0166650","-73.4377400","-71.4653860"]},"45":{"place_id":3532948,"licence":"Data \u00a9 OpenStreetMap contributors, ODbL 1.0. http:\/\/osm.org\/copyright","osm_type":"relation","osm_id":224042,"lat":"37.1232245","lon":"-78.4927721","class":"boundary","type":"administrative","place_rank":8,"importance":0.7374285571,"addresstype":"state","name":"Virginia","display_name":"Virginia, United States","boundingbox":["36.5407896","39.4660120","-83.6753671","-75.1664350"]},"46":{"place_id":4238259,"licence":"Data \u00a9 OpenStreetMap contributors, ODbL 1.0. http:\/\/osm.org\/copyright","osm_type":"relation","osm_id":5396194,"lat":"38.8950368","lon":"-77.0365427","class":"boundary","type":"administrative","place_rank":12,"importance":0.7492888986,"addresstype":"city","name":"Washington","display_name":"Washington, District of Columbia, United States","boundingbox":["38.7916303","38.9959680","-77.1197949","-76.9093660"]},"47":{"place_id":325834151,"licence":"Data \u00a9 OpenStreetMap contributors, ODbL 1.0. http:\/\/osm.org\/copyright","osm_type":"relation","osm_id":162068,"lat":"38.4758406","lon":"-80.8408415","class":"boundary","type":"administrative","place_rank":8,"importance":0.6953865071,"addresstype":"state","name":"West Virginia","display_name":"West Virginia, United States","boundingbox":["37.2014139","40.6388010","-82.6447390","-77.7190290"]},"48":{"place_id":29366769,"licence":"Data \u00a9 OpenStreetMap contributors, ODbL 1.0. http:\/\/osm.org\/copyright","osm_type":"relation","osm_id":165466,"lat":"44.4308975","lon":"-89.6884637","class":"boundary","type":"administrative","place_rank":8,"importance":0.7306255936,"addresstype":"state","name":"Wisconsin","display_name":"Wisconsin, United States","boundingbox":["42.4919515","47.3025000","-92.8893149","-86.2495480"]},"49":{"place_id":315810917,"licence":"Data \u00a9 OpenStreetMap contributors, ODbL 1.0. http:\/\/osm.org\/copyright","osm_type":"relation","osm_id":161991,"lat":"43.1700264","lon":"-107.568534","class":"boundary","type":"administrative","place_rank":8,"importance":0.690706641,"addresstype":"state","name":"Wyoming","display_name":"Wyoming, United States","boundingbox":["40.9948223","45.0058281","-111.0552665","-104.0523858"]}}}